WKT,Business Name,Industry Category,Corridor,Latitude,Longitude,Google Maps Link
"POINT (77.0647304 11.0474776)",Gradient Tech Factory,Auto Components,Avinashi Road – Arasur Industrial Corridor,11.0474776,77.0647304,https://www.google.com/maps/place/Gradient+Tech+Factory/data=!4m7!3m6!1s0x3ba8570065f330f1:0xf5ca47568def76c4!8m2!3d11.0474776!4d77.0647304!16s%2Fg%2F11lzzyjc1c!19sChIJ8TDzZQBXqDsRxHbvjVZHyvU?authuser=0&hl=en&rclk=1
"POINT (77.0642391 11.0542703)",tools,Auto Components,Avinashi Road – Arasur Industrial Corridor,11.0542703,77.0642391,https://www.google.com/maps/place/tools/data=!4m7!3m6!1s0x3ba8561ef8207b73:0x40695b10de481e88!8m2!3d11.0542703!4d77.0642391!16s%2Fg%2F11jzxdql_s!19sChIJc3sg-B5WqDsRiB5I3hBbaUA?authuser=0&hl=en&rclk=1
"POINT (77.0756222 11.0822325)",CSV Automation,Auto Components,Avinashi Road – Arasur Industrial Corridor,11.0822325,77.0756222,https://www.google.com/maps/place/CSV+Automation/data=!4m7!3m6!1s0x3ba857bf51a8f945:0x25b8b2fb16de617b!8m2!3d11.0822325!4d77.0756222!16s%2Fg%2F11csrbf0xd!19sChIJRfmoUb9XqDsRe2HeFvuyuCU?authuser=0&hl=en&rclk=1
"POINT (77.0500521 11.0504782)",Rexon Automotive Industries,Auto Components,Avinashi Road – Arasur Industrial Corridor,11.0504782,77.0500521,https://www.google.com/maps/place/Rexon+Automotive+Industries/data=!4m7!3m6!1s0x3ba8585514e2974d:0xc4591064dff96025!8m2!3d11.0504782!4d77.0500521!16s%2Fg%2F11f010xtwj!19sChIJTZfiFFVYqDsRJWD532QQWcQ?authuser=0&hl=en&rclk=1
"POINT (77.1185776 11.0770657)",Konnen Automotive,Auto Components,Avinashi Road – Arasur Industrial Corridor,11.0770657,77.1185776,https://www.google.com/maps/place/Konnen+Automotive/data=!4m7!3m6!1s0x3ba8ffa9984164c9:0xd5b1fc8d893fb2ad!8m2!3d11.0770657!4d77.1185776!16s%2Fg%2F11kr93xpvp!19sChIJyWRBmKn_qDsRrbI_iY38sdU?authuser=0&hl=en&rclk=1
"POINT (77.1090478 11.0687964)",Nethra Two Wheeler Spares,Auto Components,Avinashi Road – Arasur Industrial Corridor,11.0687964,77.1090478,https://www.google.com/maps/place/Nethra+Two+Wheeler+Spares/data=!4m7!3m6!1s0x3ba8ff0034518f5b:0x22681bb0ed72cdac!8m2!3d11.0687964!4d77.1090478!16s%2Fg%2F11x972l8wg!19sChIJW49RNAD_qDsRrM1y7bAbaCI?authuser=0&hl=en&rclk=1
"POINT (77.1429464 11.0998315)",MN Auto Technologies Pvt Ltd - Plant 1,Auto Components,Avinashi Road – Arasur Industrial Corridor,11.0998315,77.1429464,https://www.google.com/maps/place/MN+Auto+Technologies+Pvt+Ltd+-+Plant+1/data=!4m7!3m6!1s0x3ba8ff00310cef51:0x906b01ef917873c8!8m2!3d11.0998315!4d77.1429464!16s%2Fg%2F11x91131nq!19sChIJUe8MMQD_qDsRyHN4ke8Ba5A?authuser=0&hl=en&rclk=1
"POINT (77.103765 11.0698005)",Inventor Automation,Auto Components,Avinashi Road – Arasur Industrial Corridor,11.0698005,77.103765,https://www.google.com/maps/place/Inventor+Automation/data=!4m7!3m6!1s0x3ba8582dc43aa3f7:0xfb338fcbcec0135a!8m2!3d11.0698005!4d77.103765!16s%2Fg%2F11b5vs08yq!19sChIJ96M6xC1YqDsRWhPAzsuPM_s?authuser=0&hl=en&rclk=1
"POINT (77.0775213 11.039298)",Pavish Auto Spares,Auto Components,Avinashi Road – Arasur Industrial Corridor,11.039298,77.0775213,https://www.google.com/maps/place/Pavish+Auto+Spares/data=!4m7!3m6!1s0x3ba857d4b51b55dd:0x3c6e7412b1da9ee9!8m2!3d11.039298!4d77.0775213!16s%2Fg%2F11st8cn09m!19sChIJ3VUbtdRXqDsR6Z7asRJ0bjw?authuser=0&hl=en&rclk=1
"POINT (77.0241034 11.0267723)",V Ventures,Cold Storage,Avinashi Road – Arasur Industrial Corridor,11.0267723,77.0241034,https://www.google.com/maps/place/V+Ventures/data=!4m7!3m6!1s0x3ba8570030a99501:0x11260d17aa8b0a6b!8m2!3d11.0267723!4d77.0241034!16s%2Fg%2F11yq8thfly!19sChIJAZWpMABXqDsRawqLqhcNJhE?authuser=0&hl=en&rclk=1
"POINT (77.0839508 11.0575511)",Saravana Maligai Store,Cold Storage,Avinashi Road – Arasur Industrial Corridor,11.0575511,77.0839508,https://www.google.com/maps/place/Saravana+Maligai+Store/data=!4m7!3m6!1s0x3ba856194bad9cc9:0x9f23219d81bf3205!8m2!3d11.0575511!4d77.0839508!16s%2Fg%2F11g6rd0_mr!19sChIJyZytSxlWqDsRBTK_gZ0hI58?authuser=0&hl=en&rclk=1
"POINT (77.0227534 11.0265512)",AV Trading Enterprises,Cold Storage,Avinashi Road – Arasur Industrial Corridor,11.0265512,77.0227534,https://www.google.com/maps/place/AV+Trading+Enterprises/data=!4m7!3m6!1s0x3ba8578d39067731:0x25566c89d73dbc5b!8m2!3d11.0265512!4d77.0227534!16s%2Fg%2F11t0nbfmk7!19sChIJMXcGOY1XqDsRW7w914lsViU?authuser=0&hl=en&rclk=1
"POINT (77.0781924 11.0585247)",Thangam Pazhamudir Solai,Cold Storage,Avinashi Road – Arasur Industrial Corridor,11.0585247,77.0781924,https://www.google.com/maps/place/Thangam+Pazhamudir+Solai/data=!4m7!3m6!1s0x3ba85621ec0f830f:0xd0bf680bc11a21a4!8m2!3d11.0585247!4d77.0781924!16s%2Fg%2F11gd_wwh85!19sChIJD4MP7CFWqDsRpCEawQtov9A?authuser=0&hl=en&rclk=1
"POINT (77.0907304 11.0619457)",Chai N' Gupshup Express,Cold Storage,Avinashi Road – Arasur Industrial Corridor,11.0619457,77.0907304,https://www.google.com/maps/place/Chai+N%27+Gupshup+Express/data=!4m7!3m6!1s0x3ba857489d412643:0x4dd27c602628d4bb!8m2!3d11.0619457!4d77.0907304!16s%2Fg%2F11y57klbw8!19sChIJQyZBnUhXqDsRu9QoJmB80k0?authuser=0&hl=en&rclk=1
"POINT (77.0201103 11.0266946)",Cold & Café,Cold Storage,Avinashi Road – Arasur Industrial Corridor,11.0266946,77.0201103,https://www.google.com/maps/place/Cold+%26+Caf%C3%A9/data=!4m7!3m6!1s0x3ba85700350b8b09:0xaf6d988941fe89e4!8m2!3d11.0266946!4d77.0201103!16s%2Fg%2F11yrn_x9hd!19sChIJCYsLNQBXqDsR5In-QYmYba8?authuser=0&hl=en&rclk=1
"POINT (77.0350215 11.0435323)",CHIMP Goli Soda,Cold Storage,Avinashi Road – Arasur Industrial Corridor,11.0435323,77.0350215,https://www.google.com/maps/place/CHIMP+Goli+Soda/data=!4m7!3m6!1s0x3ba8578d07ed5141:0xa38b39ee6c586754!8m2!3d11.0435323!4d77.0350215!16s%2Fg%2F11nxs4ggrs!19sChIJQVHtB41XqDsRVGdYbO45i6M?authuser=0&hl=en&rclk=1
"POINT (77.0163662 11.0289835)",CREST FOODS,COIMBATORE,Cold Storage,Avinashi Road – Arasur Industrial Corridor,11.0289835,77.0163662,https://www.google.com/maps/place/CREST+FOODS,COIMBATORE/data=!4m7!3m6!1s0x3ba8599a5cf346ff:0x9e715d6780bd974c!8m2!3d11.0289835!4d77.0163662!16s%2Fg%2F11wnc75jz3!19sChIJ_0bzXJpZqDsRTJe9gGddcZ4?authuser=0&hl=en&rclk=1
"POINT (77.0510195 11.0560846)",VETRI STORES & PATANJALI STORES SUPER MARKET,Cold Storage,Avinashi Road – Arasur Industrial Corridor,11.0560846,77.0510195,https://www.google.com/maps/place/VETRI+STORES+%26+PATANJALI+STORES+SUPER+MARKET/data=!4m7!3m6!1s0x3ba857d3feec6c43:0x55b7bbfab159a292!8m2!3d11.0560846!4d77.0510195!16s%2Fg%2F11c1n18csc!19sChIJQ2zs_tNXqDsRkqJZsfq7t1U?authuser=0&hl=en&rclk=1
"POINT (77.048347 11.0400622)",Arcadia Hotel Supplies,Cold Storage,Avinashi Road – Arasur Industrial Corridor,11.0400622,77.048347,https://www.google.com/maps/place/Arcadia+Hotel+Supplies/data=!4m7!3m6!1s0x3ba857cf1c0115b1:0xc7313a164f728dd3!8m2!3d11.0400622!4d77.048347!16s%2Fg%2F11tf54_x20!19sChIJsRUBHM9XqDsR041yTxY6Mcc?authuser=0&hl=en&rclk=1
"POINT (77.0570019 11.0558378)",Aruvi Naturals,Cold Storage,Avinashi Road – Arasur Industrial Corridor,11.0558378,77.0570019,https://www.google.com/maps/place/Aruvi+Naturals/data=!4m7!3m6!1s0x3ba8f996e0f1db93:0xc7a6c617eb6e1c11!8m2!3d11.0558378!4d77.0570019!16s%2Fg%2F11shh7sdgr!19sChIJk9vx4Jb5qDsRERxu6xfGpsc?authuser=0&hl=en&rclk=1
"POINT (77.0379475 11.0399077)",Indus Electronics India (P) Ltd,Electronics,Avinashi Road – Arasur Industrial Corridor,11.0399077,77.0379475,https://www.google.com/maps/place/Indus+Electronics+India+%28P%29+Ltd/data=!4m7!3m6!1s0x3ba857c0bcdf6d11:0xcb256ee067718c12!8m2!3d11.0399077!4d77.0379475!16s%2Fg%2F1tlmls2j!19sChIJEW3fvMBXqDsREoxxZ-BuJcs?authuser=0&hl=en&rclk=1
"POINT (77.103765 11.0698005)",Inventor Automation,Electronics,Avinashi Road – Arasur Industrial Corridor,11.0698005,77.103765,https://www.google.com/maps/place/Inventor+Automation/data=!4m7!3m6!1s0x3ba8582dc43aa3f7:0xfb338fcbcec0135a!8m2!3d11.0698005!4d77.103765!16s%2Fg%2F11b5vs08yq!19sChIJ96M6xC1YqDsRWhPAzsuPM_s?authuser=0&hl=en&rclk=1
"POINT (77.0862363 11.0620438)",CIRCUIT POINT,Electronics,Avinashi Road – Arasur Industrial Corridor,11.0620438,77.0862363,https://www.google.com/maps/place/CIRCUIT+POINT/data=!4m7!3m6!1s0x3ba857e16785fc41:0x69243b688a2c590c!8m2!3d11.0620438!4d77.0862363!16s%2Fg%2F11vbbssvyj!19sChIJQfyFZ-FXqDsRDFksimg7JGk?authuser=0&hl=en&rclk=1
"POINT (77.0575847 11.0490475)",Pinnacle Power Systems,Electronics,Avinashi Road – Arasur Industrial Corridor,11.0490475,77.0575847,https://www.google.com/maps/place/Pinnacle+Power+Systems/data=!4m7!3m6!1s0x3ba8f9eef37a4891:0xbdd7d8485a82cfac!8m2!3d11.0490475!4d77.0575847!16s%2Fg%2F11jmjz5684!19sChIJkUh68-75qDsRrM-CWkjY170?authuser=0&hl=en&rclk=1
"POINT (77.0209284 11.035059)",Ceezet Electronics Pvt Ltd,Electronics,Avinashi Road – Arasur Industrial Corridor,11.035059,77.0209284,https://www.google.com/maps/place/Ceezet+Electronics+Pvt+Ltd/data=!4m7!3m6!1s0x3ba8576e3e667499:0x420db397efb69258!8m2!3d11.035059!4d77.0209284!16s%2Fg%2F11lh559_gn!19sChIJmXRmPm5XqDsRWJK275ezDUI?authuser=0&hl=en&rclk=1
"POINT (77.0380248 11.0440288)",Avanzada printed Technology Pvt Ltd,Electronics,Avinashi Road – Arasur Industrial Corridor,11.0440288,77.0380248,https://www.google.com/maps/place/Avanzada+printed+Technology+Pvt+Ltd/data=!4m7!3m6!1s0x3ba8578bf8a1abf3:0x68dad25f0abbec72!8m2!3d11.0440288!4d77.0380248!16s%2Fg%2F11hn95x8fz!19sChIJ86uh-ItXqDsRcuy7Cl_S2mg?authuser=0&hl=en&rclk=1
"POINT (77.1287895 11.0891408)",Abirami Electronics Pvt Ltd - Unit-2,Electronics,Avinashi Road – Arasur Industrial Corridor,11.0891408,77.1287895,https://www.google.com/maps/place/Abirami+Electronics+Pvt+Ltd+-+Unit-2/data=!4m7!3m6!1s0x3ba8ff000b3a7401:0xdf4dc05e71404821!8m2!3d11.0891408!4d77.1287895!16s%2Fg%2F11yj35d30y!19sChIJAXQ6CwD_qDsRIUhAcV7ATd8?authuser=0&hl=en&rclk=1
"POINT (77.0812181 11.0645222)",Eskay Industries and Electronics,Electronics,Avinashi Road – Arasur Industrial Corridor,11.0645222,77.0812181,https://www.google.com/maps/place/Eskay+Industries+and+Electronics/data=!4m7!3m6!1s0x3ba858ff8b9f15fd:0xa207963c4e3dd835!8m2!3d11.0645222!4d77.0812181!16s%2Fg%2F11fnw156dj!19sChIJ_RWfi_9YqDsRNdg9TjyWB6I?authuser=0&hl=en&rclk=1
"POINT (77.0874599 11.0608605)",M.S Transformers India Pvt.Ltd., ( Tech Power Electronics Group ),Electronics,Avinashi Road – Arasur Industrial Corridor,11.0608605,77.0874599,https://www.google.com/maps/place/M.S+Transformers+India+Pvt.Ltd.,+%28+Tech+Power+Electronics+Group+%29/data=!4m7!3m6!1s0x3ba857a80bbe9803:0xfb29baed4875db1!8m2!3d11.0608605!4d77.0874599!16s%2Fg%2F1hd_bc37s!19sChIJA5i-C6hXqDsRsV2H1K6bsg8?authuser=0&hl=en&rclk=1
"POINT (77.034938 11.0439447)",B J Electronics Private Limited,Electronics,Avinashi Road – Arasur Industrial Corridor,11.0439447,77.034938,https://www.google.com/maps/place/B+J+Electronics+Private+Limited/data=!4m7!3m6!1s0x3ba858526b5c0591:0x4cbb2a02d7eff5d9!8m2!3d11.0439447!4d77.034938!16s%2Fg%2F1tcwpl0p!19sChIJkQVca1JYqDsR2fXv1wIqu0w?authuser=0&hl=en&rclk=1
"POINT (77.0467517 11.044453)",Universal circuits, PCB manufacturing,Electronics,Avinashi Road – Arasur Industrial Corridor,11.044453,77.0467517,https://www.google.com/maps/place/Universal+circuits,+PCB+manufacturing/data=!4m7!3m6!1s0x3ba857c8cf494b23:0x5def765977cc7332!8m2!3d11.044453!4d77.0467517!16s%2Fg%2F1pp2tk_1w!19sChIJI0tJz8hXqDsRMnPMd1l2710?authuser=0&hl=en&rclk=1
"POINT (77.03726 11.0493299)",Silicon Technologies,Electronics,Avinashi Road – Arasur Industrial Corridor,11.0493299,77.03726,https://www.google.com/maps/place/Silicon+Technologies/data=!4m7!3m6!1s0x3ba857bf696364b7:0x1b1aaf59d3694eac!8m2!3d11.0493299!4d77.03726!16s%2Fg%2F11cncn0938!19sChIJt2Rjab9XqDsRrE5p01mvGhs?authuser=0&hl=en&rclk=1
"POINT (77.0897128 11.0571592)",SG PNEUMATICS PVT LTD,Electronics,Avinashi Road – Arasur Industrial Corridor,11.0571592,77.0897128,https://www.google.com/maps/place/SG+PNEUMATICS+PVT+LTD/data=!4m7!3m6!1s0x3ba8570a08e7c001:0x61f6ab85598fb189!8m2!3d11.0571592!4d77.0897128!16s%2Fg%2F11s4h8s9ph!19sChIJAcDnCApXqDsRibGPWYWr9mE?authuser=0&hl=en&rclk=1
"POINT (77.085584 11.0750442)",Aviotion,Electronics,Avinashi Road – Arasur Industrial Corridor,11.0750442,77.085584,https://www.google.com/maps/place/Aviotion/data=!4m7!3m6!1s0x3ba857b35881a6b7:0x4feb6674e6e7da46!8m2!3d11.0750442!4d77.085584!16s%2Fg%2F11rhwf86kq!19sChIJt6aBWLNXqDsRRtrn5nRm608?authuser=0&hl=en&rclk=1
"POINT (77.0641946 11.0790117)",Adriel Engineering,Electronics,Avinashi Road – Arasur Industrial Corridor,11.0790117,77.0641946,https://www.google.com/maps/place/Adriel+Engineering/data=!4m7!3m6!1s0x3ba8f9b6b2ff389b:0x81ef3f9694a8930a!8m2!3d11.0790117!4d77.0641946!16s%2Fg%2F11h64rk8ff!19sChIJmzj_srb5qDsRCpOolJY_74E?authuser=0&hl=en&rclk=1
"POINT (77.084182 11.06013)",M3 AUTOMATION,Electronics,Avinashi Road – Arasur Industrial Corridor,11.06013,77.084182,https://www.google.com/maps/place/M3+AUTOMATION/data=!4m7!3m6!1s0x3ba8561e8c1b82f7:0xabdc97ba32f72142!8m2!3d11.06013!4d77.084182!16s%2Fg%2F11c2nh68g2!19sChIJ94IbjB5WqDsRQiH3MrqX3Ks?authuser=0&hl=en&rclk=1
"POINT (77.0967735 11.0767056)",RD FOOD PRODUCT,Food Processing,Avinashi Road – Arasur Industrial Corridor,11.0767056,77.0967735,https://www.google.com/maps/place/RD+FOOD+PRODUCT/data=!4m7!3m6!1s0x3ba8577d2a710fa3:0xbf10041744151134!8m2!3d11.0767056!4d77.0967735!16s%2Fg%2F11rfrs5dwv!19sChIJow9xKn1XqDsRNBEVRBcEEL8?authuser=0&hl=en&rclk=1
"POINT (77.0778636 11.0517414)",DIVINE FOODS INDUSTRY,Food Processing,Avinashi Road – Arasur Industrial Corridor,11.0517414,77.0778636,https://www.google.com/maps/place/DIVINE+FOODS+INDUSTRY/data=!4m7!3m6!1s0x3ba857f23c16db1f:0xaef2b404a77a6!8m2!3d11.0517414!4d77.0778636!16s%2Fg%2F11trzmt6dh!19sChIJH9sWPPJXqDsRpndKQCvvCgA?authuser=0&hl=en&rclk=1
"POINT (77.0555597 11.0706119)",Purposeful Food Co,Food Processing,Avinashi Road – Arasur Industrial Corridor,11.0706119,77.0555597,https://www.google.com/maps/place/Purposeful+Food+Co/data=!4m7!3m6!1s0x3ba8f95ceaf455af:0x643b000bddd82bbc!8m2!3d11.0706119!4d77.0555597!16s%2Fg%2F11tj6fdxdn!19sChIJr1X06lz5qDsRvCvY3QsAO2Q?authuser=0&hl=en&rclk=1
"POINT (77.1034375 11.0699567)",vsan agro and dairy Industries,Food Processing,Avinashi Road – Arasur Industrial Corridor,11.0699567,77.1034375,https://www.google.com/maps/place/vsan+agro+and+dairy+Industries/data=!4m7!3m6!1s0x3ba8f70d726d8d49:0xee5ac1e6b2806b56!8m2!3d11.0699567!4d77.1034375!16s%2Fg%2F11rs1tyjsx!19sChIJSY1tcg33qDsRVmuAsubBWu4?authuser=0&hl=en&rclk=1
"POINT (77.1085653 11.0528412)",NAVA DHAAN AGRO,Food Processing,Avinashi Road – Arasur Industrial Corridor,11.0528412,77.1085653,https://www.google.com/maps/place/NAVA+DHAAN+AGRO/data=!4m7!3m6!1s0x3ba855d657fc8d73:0x112823037ef7a554!8m2!3d11.0528412!4d77.1085653!16s%2Fg%2F11h32gqhr_!19sChIJc438V9ZVqDsRVKX3fgMjKBE?authuser=0&hl=en&rclk=1
"POINT (77.0664239 11.0702946)",GAP Foods,Food Processing,Avinashi Road – Arasur Industrial Corridor,11.0702946,77.0664239,https://www.google.com/maps/place/GAP+Foods/data=!4m7!3m6!1s0x3ba8f9fe09b8edb5:0xdd74b8c9297ec4b0!8m2!3d11.0702946!4d77.0664239!16s%2Fg%2F11w28z4cm4!19sChIJte24Cf75qDsRsMR-Kcm4dN0?authuser=0&hl=en&rclk=1
"POINT (77.0223357 11.0200332)",Chithi Foods FMCG Manufacturer Private Limited,Food Processing,Avinashi Road – Arasur Industrial Corridor,11.0200332,77.0223357,https://www.google.com/maps/place/Chithi+Foods+FMCG+Manufacturer+Private+Limited/data=!4m7!3m6!1s0x3ba857f7ff4a6b13:0x8801b14501c992a7!8m2!3d11.0200332!4d77.0223357!16s%2Fg%2F11fp8v3b1b!19sChIJE2tK__dXqDsRp5LJAUWxAYg?authuser=0&hl=en&rclk=1
"POINT (77.0839127 11.0617737)",Handy Think Engineering,Food Processing,Avinashi Road – Arasur Industrial Corridor,11.0617737,77.0839127,https://www.google.com/maps/place/Handy+Think+Engineering/data=!4m7!3m6!1s0x3ba8561e6aef06f5:0xdfc108bc2eed8992!8m2!3d11.0617737!4d77.0839127!16s%2Fg%2F11gcbx2bz_!19sChIJ9Qbvah5WqDsRkontLrwIwd8?authuser=0&hl=en&rclk=1
"POINT (77.0667748 11.0652399)",Bala Krishna Engineering,Food Processing,Avinashi Road – Arasur Industrial Corridor,11.0652399,77.0667748,https://www.google.com/maps/place/Bala+Krishna+Engineering/data=!4m7!3m6!1s0x3ba8f882df71c62b:0xdf5c64157186d35f!8m2!3d11.0652399!4d77.0667748!16s%2Fg%2F11h8wq7__l!19sChIJK8Zx34L4qDsRX9OGcRVkXN8?authuser=0&hl=en&rclk=1
"POINT (77.1462235 11.0912409)",Vita Foods and beverage,Food Processing,Avinashi Road – Arasur Industrial Corridor,11.0912409,77.1462235,https://www.google.com/maps/place/Vita+Foods+and+beverage/data=!4m7!3m6!1s0x3ba8ff1c3b3204af:0xa4a77fd1c839458d!8m2!3d11.0912409!4d77.1462235!16s%2Fg%2F11xmp6_9bs!19sChIJrwQyOxz_qDsRjUU5yNF_p6Q?authuser=0&hl=en&rclk=1
"POINT (77.036608 11.062753)",PROCARVIT FOOD PRODUCTS (INDIA) PVT LTD,Food Processing,Avinashi Road – Arasur Industrial Corridor,11.062753,77.036608,https://www.google.com/maps/place/PROCARVIT+FOOD+PRODUCTS+%28INDIA%29+PVT+LTD/data=!4m7!3m6!1s0x3ba858efb504b1b1:0x6935546ba68435c9!8m2!3d11.062753!4d77.036608!16s%2Fg%2F1txnmx3r!19sChIJsbEEte9YqDsRyTWEpmtUNWk?authuser=0&hl=en&rclk=1
"POINT (77.053491 11.046774)",Blackstone shipping Pvt. Ltd.,Logistics,Avinashi Road – Arasur Industrial Corridor,11.046774,77.053491,https://www.google.com/maps/place/Blackstone+shipping+Pvt.+Ltd./data=!4m7!3m6!1s0x3ba857cc99cb86a7:0x4606fa4cbfc0e475!8m2!3d11.046774!4d77.053491!16s%2Fg%2F11tg0nf5qy!19sChIJp4bLmcxXqDsRdeTAv0z6BkY?authuser=0&hl=en&rclk=1
"POINT (77.037883 11.0328881)",Send Easy Logistics in Coimbatore,Logistics,Avinashi Road – Arasur Industrial Corridor,11.0328881,77.037883,https://www.google.com/maps/place/Send+Easy+Logistics+in+Coimbatore/data=!4m7!3m6!1s0x3ba8558686191347:0x8d5db7b8977735ba!8m2!3d11.0328881!4d77.037883!16s%2Fg%2F11h55dp95p!19sChIJRxMZhoZVqDsRujV3l7i3XY0?authuser=0&hl=en&rclk=1
"POINT (77.0515069 11.0595766)",Crystal Cargo,Logistics,Avinashi Road – Arasur Industrial Corridor,11.0595766,77.0515069,https://www.google.com/maps/place/Crystal+Cargo/data=!4m7!3m6!1s0x3ba857ccfc6bc9f7:0x5a3a1e6cf4fafda5!8m2!3d11.0595766!4d77.0515069!16s%2Fg%2F11gf5mjz9d!19sChIJ98lr_MxXqDsRpf369GweOlo?authuser=0&hl=en&rclk=1
"POINT (77.0359368 11.0400852)",Broekman Logistics India Private Limited,Logistics,Avinashi Road – Arasur Industrial Corridor,11.0400852,77.0359368,https://www.google.com/maps/place/Broekman+Logistics+India+Private+Limited/data=!4m7!3m6!1s0x3ba857bebcb5cba1:0x8eb36c38b08cf81c!8m2!3d11.0400852!4d77.0359368!16s%2Fg%2F1tdl94f9!19sChIJocu1vL5XqDsRHPiMsDhss44?authuser=0&hl=en&rclk=1
"POINT (77.0395078 11.0352682)",Greenwich Meridian Logistics (I) Pvt. Ltd.,Logistics,Avinashi Road – Arasur Industrial Corridor,11.0352682,77.0395078,https://www.google.com/maps/place/Greenwich+Meridian+Logistics+%28I%29+Pvt.+Ltd./data=!4m7!3m6!1s0x3ba857bf13b8c3ef:0x4960cc7f3f11911e!8m2!3d11.0352682!4d77.0395078!16s%2Fg%2F11b6p4l2tk!19sChIJ78O4E79XqDsRHpERP3_MYEk?authuser=0&hl=en&rclk=1
"POINT (77.0661135 11.0458146)",SG Packers & Movers,Logistics,Avinashi Road – Arasur Industrial Corridor,11.0458146,77.0661135,https://www.google.com/maps/place/SG+Packers+%26+Movers/data=!4m7!3m6!1s0x3ba857afed573df9:0x3808a1f04ddd47c2!8m2!3d11.0458146!4d77.0661135!16s%2Fg%2F11w26m95pk!19sChIJ-T1X7a9XqDsRwkfdTfChCDg?authuser=0&hl=en&rclk=1
"POINT (77.0882944 11.058622)",Serendip Sourcing Private Limited,Logistics,Avinashi Road – Arasur Industrial Corridor,11.058622,77.0882944,https://www.google.com/maps/place/Serendip+Sourcing+Private+Limited/data=!4m7!3m6!1s0x3ba855eec7a14679:0xf561d8f07faa376d!8m2!3d11.058622!4d77.0882944!16s%2Fg%2F11thj_6j8v!19sChIJeUahx-5VqDsRbTeqf_DYYfU?authuser=0&hl=en&rclk=1
"POINT (77.0379475 11.0399077)",Indus Electronics India (P) Ltd,Manufacturers,Avinashi Road – Arasur Industrial Corridor,11.0399077,77.0379475,https://www.google.com/maps/place/Indus+Electronics+India+%28P%29+Ltd/data=!4m7!3m6!1s0x3ba857c0bcdf6d11:0xcb256ee067718c12!8m2!3d11.0399077!4d77.0379475!16s%2Fg%2F1tlmls2j!19sChIJEW3fvMBXqDsREoxxZ-BuJcs?authuser=0&hl=en&rclk=1
"POINT (77.0535681 11.0439162)",EARTHING MATERIALS IN TAMILNADU,Manufacturers,Avinashi Road – Arasur Industrial Corridor,11.0439162,77.0535681,https://www.google.com/maps/place/EARTHING+MATERIALS+IN+TAMILNADU/data=!4m7!3m6!1s0x3ba85788b84ec0ef:0xf8b229fa8515e5ed!8m2!3d11.0439162!4d77.0535681!16s%2Fg%2F11lhqb1cyy!19sChIJ78BOuIhXqDsR7eUVhfopsvg?authuser=0&hl=en&rclk=1
"POINT (77.0461182 11.06715)",Easytech CNC Machinery Manufacturing,Manufacturers,Avinashi Road – Arasur Industrial Corridor,11.06715,77.0461182,https://www.google.com/maps/place/Easytech+CNC+Machinery+Manufacturing/data=!4m7!3m6!1s0x3ba8f87a1e56aaab:0x67113f9e20494f87!8m2!3d11.06715!4d77.0461182!16s%2Fg%2F11t005yrgq!19sChIJq6pWHnr4qDsRh09JIJ4_EWc?authuser=0&hl=en&rclk=1
"POINT (77.1027346 11.0750745)",M.M Gears Pvt Ltd - Coimbatore, India,Manufacturers,Avinashi Road – Arasur Industrial Corridor,11.0750745,77.1027346,https://www.google.com/maps/place/M.M+Gears+Pvt+Ltd+-+Coimbatore,+India/data=!4m7!3m6!1s0x3ba84b43c595a677:0xaf7c703e30a74124!8m2!3d11.0750745!4d77.1027346!16s%2Fg%2F1hg4w1n9f!19sChIJd6aVxUNLqDsRJEGnMD5wfK8?authuser=0&hl=en&rclk=1
"POINT (77.0489843 11.0523173)",ASK 3 Star Steels - Furniture Factory,Manufacturers,Avinashi Road – Arasur Industrial Corridor,11.0523173,77.0489843,https://www.google.com/maps/place/ASK+3+Star+Steels+-+Furniture+Factory/data=!4m7!3m6!1s0x3ba857d1bedc3e3f:0x634a541f8c470ea6!8m2!3d11.0523173!4d77.0489843!16s%2Fg%2F11xfjmpfz!19sChIJPz7cvtFXqDsRpg5HjB9USmM?authuser=0&hl=en&rclk=1
"POINT (77.037155 11.0492318)",M/s Kovai Woodstar Automation and Technology Pvt Ltd,Manufacturers,Avinashi Road – Arasur Industrial Corridor,11.0492318,77.037155,https://www.google.com/maps/place/M%2Fs+Kovai+Woodstar+Automation+and+Technology+Pvt+Ltd/data=!4m7!3m6!1s0x3ba857c322aaa713:0x75f763158b749a64!8m2!3d11.0492318!4d77.037155!16s%2Fg%2F11b6cdpn61!19sChIJE6eqIsNXqDsRZJp0ixVj93U?authuser=0&hl=en&rclk=1
"POINT (77.0646448 11.0698729)",Dharshini Impex (P) Limited,Manufacturers,Avinashi Road – Arasur Industrial Corridor,11.0698729,77.0646448,https://www.google.com/maps/place/Dharshini+Impex+%28P%29+Limited/data=!4m7!3m6!1s0x3ba858526b5c0591:0x2c1a977c8c30426d!8m2!3d11.0698729!4d77.0646448!16s%2Fg%2F1ts3d15y!19sChIJkQVca1JYqDsRbUIwjHyXGiw?authuser=0&hl=en&rclk=1
"POINT (77.1037595 11.0733067)",Calmet - Cast Iron and Ductile Iron Casting Manufacturer & Supplier,Manufacturers,Avinashi Road – Arasur Industrial Corridor,11.0733067,77.1037595,https://www.google.com/maps/place/Calmet+-+Cast+Iron+and+Ductile+Iron+Casting+Manufacturer+%26+Supplier/data=!4m7!3m6!1s0x3ba84b43d0000087:0xfef20e497a5269a0!8m2!3d11.0733067!4d77.1037595!16s%2Fg%2F1s04f7jdp!19sChIJhwAA0ENLqDsRoGlSekkO8v4?authuser=0&hl=en&rclk=1
"POINT (77.1272005 11.0884664)",GemOrion Machinery Private Limited | Industrial Chiller Manufacturers In India,Manufacturers,Avinashi Road – Arasur Industrial Corridor,11.0884664,77.1272005,https://www.google.com/maps/place/GemOrion+Machinery+Private+Limited+%7C+Industrial+Chiller+Manufacturers+In+India/data=!4m7!3m6!1s0x3ba856332a4456b3:0x2b064d351608c6d5!8m2!3d11.0884664!4d77.1272005!16s%2Fg%2F11hc_2w0d0!19sChIJs1ZEKjNWqDsR1cYIFjVNBis?authuser=0&hl=en&rclk=1
"POINT (77.0509102 11.0533009)",Kanakadhara Foods(Masala and Millet Ready Mixes Manufacturer),Manufacturers,Avinashi Road – Arasur Industrial Corridor,11.0533009,77.0509102,https://www.google.com/maps/place/Kanakadhara+Foods%28Masala+and+Millet+Ready+Mixes+Manufacturer%29/data=!4m7!3m6!1s0x3ba8590b0bddb619:0x33752424abb136c7!8m2!3d11.0533009!4d77.0509102!16s%2Fg%2F11dyp0n21w!19sChIJGbbdCwtZqDsRxzaxqyQkdTM?authuser=0&hl=en&rclk=1
"POINT (77.1102697 11.0657318)",Lakshmi Life Sciences Private Limited - Unit 2,Manufacturers,Avinashi Road – Arasur Industrial Corridor,11.0657318,77.1102697,https://www.google.com/maps/place/Lakshmi+Life+Sciences+Private+Limited+-+Unit+2/data=!4m7!3m6!1s0x3ba8ff56412e2b1f:0x2a1ae3e0d45d5884!8m2!3d11.0657318!4d77.1102697!16s%2Fg%2F11bxg3q3dj!19sChIJHysuQVb_qDsRhFhd1ODjGio?authuser=0&hl=en&rclk=1
"POINT (77.0874324 11.062982)",EQUBZ Lithium Battery Manufacturer,Manufacturers,Avinashi Road – Arasur Industrial Corridor,11.062982,77.0874324,https://www.google.com/maps/place/EQUBZ+Lithium+Battery+Manufacturer/data=!4m7!3m6!1s0x3ba8570196cb5dbb:0xb7139c13a6bcc4ef!8m2!3d11.062982!4d77.0874324!16s%2Fg%2F11rzpvdp03!19sChIJu13LlgFXqDsR78S8phOcE7c?authuser=0&hl=en&rclk=1
"POINT (77.0751496 11.0756465)",Manufacturing the Modular items & Onsite Interior fitout works,Manufacturers,Avinashi Road – Arasur Industrial Corridor,11.0756465,77.0751496,https://www.google.com/maps/place/Manufacturing+the+Modular+items+%26+Onsite+Interior+fitout+works/data=!4m7!3m6!1s0x3ba8f9005a8225c3:0x71690563382806f8!8m2!3d11.0756465!4d77.0751496!16s%2Fg%2F11yv0klknq!19sChIJwyWCWgD5qDsR-AYoOGMFaXE?authuser=0&hl=en&rclk=1
"POINT (77.0792377 11.0422907)",Fineworth Engineers & Services,Manufacturers,Avinashi Road – Arasur Industrial Corridor,11.0422907,77.0792377,https://www.google.com/maps/place/Fineworth+Engineers+%26+Services/data=!4m7!3m6!1s0x3ba85647f03b5097:0xef8f2a30831ef1ea!8m2!3d11.0422907!4d77.0792377!16s%2Fg%2F11l1dmkdjh!19sChIJl1A78EdWqDsR6vEegzAqj-8?authuser=0&hl=en&rclk=1
"POINT (77.0643204 11.0639383)",Easttern Engineering,Manufacturers,Avinashi Road – Arasur Industrial Corridor,11.0639383,77.0643204,https://www.google.com/maps/place/Easttern+Engineering/data=!4m7!3m6!1s0x3ba8f8ec5f2d7831:0x5436025a483d95ae!8m2!3d11.0639383!4d77.0643204!16s%2Fg%2F11b90n84p1!19sChIJMXgtX-z4qDsRrpU9SFoCNlQ?authuser=0&hl=en&rclk=1
"POINT (77.0441714 11.0651437)",Bakgiyam Engineering - Iron Casting Manufacturers and Suppliers,Manufacturers,Avinashi Road – Arasur Industrial Corridor,11.0651437,77.0441714,https://www.google.com/maps/place/Bakgiyam+Engineering+-+Iron+Casting+Manufacturers+and+Suppliers/data=!4m7!3m6!1s0x3ba8f9fc932a439d:0xd268b22b7de4b3f0!8m2!3d11.0651437!4d77.0441714!16s%2Fg%2F11lgm1cf4m!19sChIJnUMqk_z5qDsR8LPkfSuyaNI?authuser=0&hl=en&rclk=1
"POINT (77.0719649 11.0495981)",Logos Weld Products - Welding Electrodes Machine Manufacturers & Suppliers in India,Manufacturers,Avinashi Road – Arasur Industrial Corridor,11.0495981,77.0719649,https://www.google.com/maps/place/Logos+Weld+Products+-+Welding+Electrodes+Machine+Manufacturers+%26+Suppliers+in+India/data=!4m7!3m6!1s0x3ba8562346547825:0x2dd8d15a8aa5aedb!8m2!3d11.0495981!4d77.0719649!16s%2Fg%2F1pyczsgxy!19sChIJJXhURiNWqDsR266lilrR2C0?authuser=0&hl=en&rclk=1
"POINT (77.0783339 11.0453088)",ARC Engineering Industries,Manufacturers,Avinashi Road – Arasur Industrial Corridor,11.0453088,77.0783339,https://www.google.com/maps/place/ARC+Engineering+Industries/data=!4m7!3m6!1s0x3ba85747dba31959:0x60ebbd3bb82003ee!8m2!3d11.0453088!4d77.0783339!16s%2Fg%2F11hyt9f3kd!19sChIJWRmj20dXqDsR7gMguDu962A?authuser=0&hl=en&rclk=1
"POINT (77.1019739 11.0848789)",Mountire Machinery & Components - Agile Manufacturing & Dispatch Facility,Manufacturers,Avinashi Road – Arasur Industrial Corridor,11.0848789,77.1019739,https://www.google.com/maps/place/Mountire+Machinery+%26+Components+-+Agile+Manufacturing+%26+Dispatch+Facility/data=!4m7!3m6!1s0x3ba8f9005a49c825:0x731bd05a123b0cbb!8m2!3d11.0848789!4d77.1019739!16s%2Fg%2F11lznv2rdn!19sChIJJchJWgD5qDsRuww7ElrQG3M?authuser=0&hl=en&rclk=1
"POINT (77.0674692 11.0579349)",VPG BUILDWELL INDIA PVT. LTD. Concrete Mixer Machine,Manufacturers,Avinashi Road – Arasur Industrial Corridor,11.0579349,77.0674692,https://www.google.com/maps/place/VPG+BUILDWELL+INDIA+PVT.+LTD.+Concrete+Mixer+Machine/data=!4m7!3m6!1s0x3ba8562d8f61a495:0x8f8ddd5beb1177a0!8m2!3d11.0579349!4d77.0674692!16s%2Fg%2F1tvw3cft!19sChIJlaRhjy1WqDsRoHcR61vdjY8?authuser=0&hl=en&rclk=1
"POINT (77.101645 11.074847)",ALTECH BATTERIES ( Sharp Batteries),Manufacturers,Avinashi Road – Arasur Industrial Corridor,11.074847,77.101645,https://www.google.com/maps/place/ALTECH+BATTERIES+%28+Sharp+Batteries%29/data=!4m7!3m6!1s0x3ba8f952ffd4f737:0x2dc01c74203dbb96!8m2!3d11.074847!4d77.101645!16s%2Fg%2F11l23vwrph!19sChIJN_fU_1L5qDsRlrs9IHQcwC0?authuser=0&hl=en&rclk=1
"POINT (77.1014491 11.0793593)",ARA HOMES,Manufacturers,Avinashi Road – Arasur Industrial Corridor,11.0793593,77.1014491,https://www.google.com/maps/place/ARA+HOMES/data=!4m7!3m6!1s0x3ba8f8b340b54b2f:0x7f962bde4780e469!8m2!3d11.0793593!4d77.1014491!16s%2Fg%2F11h9zszk45!19sChIJL0u1QLP4qDsRaeSAR94rln8?authuser=0&hl=en&rclk=1
"POINT (77.085391 11.0717936)",Arunachala Weaving Mills,Manufacturers,Avinashi Road – Arasur Industrial Corridor,11.0717936,77.085391,https://www.google.com/maps/place/Arunachala+Weaving+Mills/data=!4m7!3m6!1s0x3ba8f8a48056e48b:0x6c1525830442b059!8m2!3d11.0717936!4d77.085391!16s%2Fg%2F11fzbwpzfv!19sChIJi-RWgKT4qDsRWbBCBIMlFWw?authuser=0&hl=en&rclk=1
"POINT (77.0866176 11.071026)",Universal Mould & Dies,Manufacturers,Avinashi Road – Arasur Industrial Corridor,11.071026,77.0866176,https://www.google.com/maps/place/Universal+Mould+%26+Dies/data=!4m7!3m6!1s0x3ba8f8a467ddf7c7:0x32214f4ce6d0ca44!8m2!3d11.071026!4d77.0866176!16s%2Fg%2F11bwpd5w4w!19sChIJx_fdZ6T4qDsRRMrQ5kxPITI?authuser=0&hl=en&rclk=1
"POINT (77.0907176 11.0723199)",Kreationery,Manufacturers,Avinashi Road – Arasur Industrial Corridor,11.0723199,77.0907176,https://www.google.com/maps/place/Kreationery/data=!4m7!3m6!1s0x3ba8f975d9af5e19:0x9bc207acaf0604a3!8m2!3d11.0723199!4d77.0907176!16s%2Fg%2F11nwcys75y!19sChIJGV6v2XX5qDsRowQGr6wHwps?authuser=0&hl=en&rclk=1
"POINT (77.0707021 11.054959)",Alpha Pumps,Manufacturers,Avinashi Road – Arasur Industrial Corridor,11.054959,77.0707021,https://www.google.com/maps/place/Alpha+Pumps/data=!4m7!3m6!1s0x3ba85625a1598753:0x6e62df1c11fbd007!8m2!3d11.054959!4d77.0707021!16s%2Fg%2F1pv1rvz4b!19sChIJU4dZoSVWqDsRB9D7ERzfYm4?authuser=0&hl=en&rclk=1
"POINT (77.0635583 11.0526458)",SMART ENGINEERING(Telescopic covers),Manufacturers,Avinashi Road – Arasur Industrial Corridor,11.0526458,77.0635583,https://www.google.com/maps/place/SMART+ENGINEERING%28Telescopic+covers%29/data=!4m7!3m6!1s0x3ba8563ab9659cad:0x46d09dba319ae306!8m2!3d11.0526458!4d77.0635583!16s%2Fg%2F11nnv_4cyy!19sChIJrZxluTpWqDsRBuOaMbqd0EY?authuser=0&hl=en&rclk=1
"POINT (77.086011 11.0657016)",SRN Bricks,Manufacturers,Avinashi Road – Arasur Industrial Corridor,11.0657016,77.086011,https://www.google.com/maps/place/SRN+Bricks/data=!4m7!3m6!1s0x3ba8575e245dfa7b:0xdfab6d4ff283e2c1!8m2!3d11.0657016!4d77.086011!16s%2Fg%2F11kbl8l29q!19sChIJe_pdJF5XqDsRweKD8k9tq98?authuser=0&hl=en&rclk=1
"POINT (77.1021165 11.084093)",Yuva Agro Sales,Manufacturers,Avinashi Road – Arasur Industrial Corridor,11.084093,77.1021165,https://www.google.com/maps/place/Yuva+Agro+Sales/data=!4m7!3m6!1s0x3ba8ff5358b0cab3:0xf92bf26cb66f4421!8m2!3d11.084093!4d77.1021165!16s%2Fg%2F11c3yw7zmc!19sChIJs8qwWFP_qDsRIURvtmzyK_k?authuser=0&hl=en&rclk=1
"POINT (77.1195247 11.0855319)",Vishnu Lakshmi Industries,Manufacturers,Avinashi Road – Arasur Industrial Corridor,11.0855319,77.1195247,https://www.google.com/maps/place/Vishnu+Lakshmi+Industries/data=!4m7!3m6!1s0x3ba8ff6968e13b29:0x5f55673cbcd7d1f6!8m2!3d11.0855319!4d77.1195247!16s%2Fg%2F11h6v8n7bv!19sChIJKTvhaGn_qDsR9tHXvDxnVV8?authuser=0&hl=en&rclk=1
"POINT (77.0835523 11.0591765)",RN works silencer manufacturer,Manufacturers,Avinashi Road – Arasur Industrial Corridor,11.0591765,77.0835523,https://www.google.com/maps/place/RN+works+silencer+manufacturer/data=!4m7!3m6!1s0x3ba8579246203271:0xf22332f8a2aa4bc0!8m2!3d11.0591765!4d77.0835523!16s%2Fg%2F11rhcrqk29!19sChIJcTIgRpJXqDsRwEuqovgyI_I?authuser=0&hl=en&rclk=1
"POINT (77.0796169 11.0502763)",Sky Touch Elevators,Manufacturers,Avinashi Road – Arasur Industrial Corridor,11.0502763,77.0796169,https://www.google.com/maps/place/Sky+Touch+Elevators/data=!4m7!3m6!1s0x3ba8575d1282a1db:0xdbd639a84396e5a4!8m2!3d11.0502763!4d77.0796169!16s%2Fg%2F11vr0520cg!19sChIJ26GCEl1XqDsRpOWWQ6g51ts?authuser=0&hl=en&rclk=1
"POINT (77.0614383 11.052568)",MARUTHU ARTS & STICKERING,Manufacturers,Avinashi Road – Arasur Industrial Corridor,11.052568,77.0614383,https://www.google.com/maps/place/MARUTHU+ARTS+%26+STICKERING/data=!4m7!3m6!1s0x3ba857a697f466a5:0x14a93bdb8ba213ed!8m2!3d11.052568!4d77.0614383!16s%2Fg%2F11sbnl7bsx!19sChIJpWb0l6ZXqDsR7ROii9s7qRQ?authuser=0&hl=en&rclk=1
"POINT (77.1038619 11.1054182)",S S INDUSTRIES,Manufacturers,Avinashi Road – Arasur Industrial Corridor,11.1054182,77.1038619,https://www.google.com/maps/place/S+S+INDUSTRIES/data=!4m7!3m6!1s0x3ba8ff007d746935:0x2bb8ee8cc3d84340!8m2!3d11.1054182!4d77.1038619!16s%2Fg%2F11y6dw2lwm!19sChIJNWl0fQD_qDsRQEPYw4zuuCs?authuser=0&hl=en&rclk=1
"POINT (77.0867065 11.0669266)",TMG Textiles And Garmets,Manufacturers,Avinashi Road – Arasur Industrial Corridor,11.0669266,77.0867065,https://www.google.com/maps/place/TMG+Textiles+And+Garmets/data=!4m7!3m6!1s0x3ba8f974681b280d:0xcd17c743e5c82b60!8m2!3d11.0669266!4d77.0867065!16s%2Fg%2F11c45kd3_b!19sChIJDSgbaHT5qDsRYCvI5UPHF80?authuser=0&hl=en&rclk=1
"POINT (77.1157834 11.0871675)",Amarnath hollow machines,Manufacturers,Avinashi Road – Arasur Industrial Corridor,11.0871675,77.1157834,https://www.google.com/maps/place/Amarnath+hollow+machines/data=!4m7!3m6!1s0x3ba8ff63663e2e27:0x7e101b34844c73ed!8m2!3d11.0871675!4d77.1157834!16s%2Fg%2F11yfh9nc3v!19sChIJJy4-ZmP_qDsR7XNMhDQbEH4?authuser=0&hl=en&rclk=1
"POINT (77.1016393 11.0767705)",Udhaya Energy Photovoltaics (P) Ltd.,,Renewable Energy,Avinashi Road – Arasur Industrial Corridor,11.0767705,77.1016393,https://www.google.com/maps/place/Udhaya+Energy+Photovoltaics+%28P%29+Ltd.,/data=!4m7!3m6!1s0x3ba8f8ad8bcffeeb:0xeec18800745f003f!8m2!3d11.0767705!4d77.1016393!16s%2Fg%2F1tptp109!19sChIJ6_7Pi634qDsRPwBfdACIwe4?authuser=0&hl=en&rclk=1
"POINT (77.0662902 11.0468076)",IFORE Green Power Pvt Ltd,Renewable Energy,Avinashi Road – Arasur Industrial Corridor,11.0468076,77.0662902,https://www.google.com/maps/place/IFORE+Green+Power+Pvt+Ltd/data=!4m7!3m6!1s0x3ba857dad4ec0fef:0x6f8cb9d099d7c355!8m2!3d11.0468076!4d77.0662902!16s%2Fg%2F11f6g1nyj4!19sChIJ7w_s1NpXqDsRVcPXmdC5jG8?authuser=0&hl=en&rclk=1
"POINT (77.0969036 11.0653877)",UDHAYA SEMICONDUCTORS LIMITED,Renewable Energy,Avinashi Road – Arasur Industrial Corridor,11.0653877,77.0969036,https://www.google.com/maps/place/UDHAYA+SEMICONDUCTORS+LIMITED/data=!4m7!3m6!1s0x3ba857b1ff88dc2b:0x3f1c0c194f6cc806!8m2!3d11.0653877!4d77.0969036!16s%2Fg%2F1tct74lm!19sChIJK9yI_7FXqDsRBshsTxkMHD8?authuser=0&hl=en&rclk=1
"POINT (77.0488882 11.0474515)",Energy man power technologies india private limited Warehouse,Renewable Energy,Avinashi Road – Arasur Industrial Corridor,11.0474515,77.0488882,https://www.google.com/maps/place/Energy+man+power+technologies+india+private+limited+Warehouse/data=!4m7!3m6!1s0x3ba85717b3478c5d:0x22c3995fc9c8d1df!8m2!3d11.0474515!4d77.0488882!16s%2Fg%2F11lzxh3078!19sChIJXYxHsxdXqDsR39HIyV-ZwyI?authuser=0&hl=en&rclk=1
"POINT (77.1239783 11.0822607)",Suns power solar,Renewable Energy,Avinashi Road – Arasur Industrial Corridor,11.0822607,77.1239783,https://www.google.com/maps/place/Suns+power+solar/data=!4m7!3m6!1s0x3ba8ff10eb843913:0x5d65493b8c476a40!8m2!3d11.0822607!4d77.1239783!16s%2Fg%2F11ypjy7sq1!19sChIJEzmE6xD_qDsRQGpHjDtJZV0?authuser=0&hl=en&rclk=1
"POINT (77.069519 11.0874718)",Solar Products in Coimbatore | Kanali Aatral Tholilnutpam-Office,Renewable Energy,Avinashi Road – Arasur Industrial Corridor,11.0874718,77.069519,https://www.google.com/maps/place/Solar+Products+in+Coimbatore+%7C+Kanali+Aatral+Tholilnutpam-Office/data=!4m7!3m6!1s0x3ba8f9b186e458d9:0xd6acd72954dc1987!8m2!3d11.0874718!4d77.069519!16s%2Fg%2F11vzz52z6g!19sChIJ2VjkhrH5qDsRhxncVCnXrNY?authuser=0&hl=en&rclk=1
"POINT (77.0140494 11.0257255)",Grand Shakthi Power P Ltd,Renewable Energy,Avinashi Road – Arasur Industrial Corridor,11.0257255,77.0140494,https://www.google.com/maps/place/Grand+Shakthi+Power+P+Ltd/data=!4m7!3m6!1s0x3ba857e22746ff4d:0xfe858b48ce240fd0!8m2!3d11.0257255!4d77.0140494!16s%2Fg%2F11qn5gkqjl!19sChIJTf9GJ-JXqDsR0A8kzkiLhf4?authuser=0&hl=en&rclk=1
"POINT (77.0227091 11.0199375)",Kondaas Automation Pvt Ltd,Renewable Energy,Avinashi Road – Arasur Industrial Corridor,11.0199375,77.0227091,https://www.google.com/maps/place/Kondaas+Automation+Pvt+Ltd/data=!4m7!3m6!1s0x3ba8579cc58944d3:0x887da9dc810a114b!8m2!3d11.0199375!4d77.0227091!16s%2Fg%2F1tfxf3fk!19sChIJ00SJxZxXqDsRSxEKgdypfYg?authuser=0&hl=en&rclk=1
"POINT (77.0656764 11.0302621)",Winstar Solar Industries,Renewable Energy,Avinashi Road – Arasur Industrial Corridor,11.0302621,77.0656764,https://www.google.com/maps/place/Winstar+Solar+Industries/data=!4m7!3m6!1s0x3ba857d821262bed:0xcc99cbbf18d3d08b!8m2!3d11.0302621!4d77.0656764!16s%2Fg%2F11sjccqbx6!19sChIJ7SsmIdhXqDsRi9DTGL_Lmcw?authuser=0&hl=en&rclk=1
"POINT (77.0963789 11.064134)",Greenerg Mobility Solutions Private Limited,Renewable Energy,Avinashi Road – Arasur Industrial Corridor,11.064134,77.0963789,https://www.google.com/maps/place/Greenerg+Mobility+Solutions+Private+Limited/data=!4m7!3m6!1s0x3ba859550902eb8b:0xf12c65776adbf680!8m2!3d11.064134!4d77.0963789!16s%2Fg%2F11h54x_v7v!19sChIJi-sCCVVZqDsRgPbbandlLPE?authuser=0&hl=en&rclk=1
"POINT (77.1322713 11.1061872)",GES ENERGY SOLUTIONS LLP,Renewable Energy,Avinashi Road – Arasur Industrial Corridor,11.1061872,77.1322713,https://www.google.com/maps/place/GES+ENERGY+SOLUTIONS+LLP/data=!4m7!3m6!1s0x3ba8ff18b3ea4d61:0xe152ec1aa7654c3!8m2!3d11.1061872!4d77.1322713!16s%2Fg%2F11s4tp1wh_!19sChIJYU3qsxj_qDsRw1R2qsEuFQ4?authuser=0&hl=en&rclk=1
"POINT (77.1750673 11.1052118)",Shiniunicorns Solar Technologies Pvt Ltd,Renewable Energy,Avinashi Road – Arasur Industrial Corridor,11.1052118,77.1750673,https://www.google.com/maps/place/Shiniunicorns+Solar+Technologies+Pvt+Ltd/data=!4m7!3m6!1s0x3ba8ffc970341a67:0x5ae09a903ec42d59!8m2!3d11.1052118!4d77.1750673!16s%2Fg%2F11w311825f!19sChIJZxo0cMn_qDsRWS3EPpCa4Fo?authuser=0&hl=en&rclk=1
"POINT (77.0628348 11.0535731)",Onwords Automation Private Limited,Renewable Energy,Avinashi Road – Arasur Industrial Corridor,11.0535731,77.0628348,https://www.google.com/maps/place/Onwords+Automation+Private+Limited/data=!4m7!3m6!1s0x3ba859586842a035:0x3b4a10342f654548!8m2!3d11.0535731!4d77.0628348!16s%2Fg%2F11y58zcfm9!19sChIJNaBCaFhZqDsRSEVlLzQQSjs?authuser=0&hl=en&rclk=1
"POINT (77.0646448 11.0698729)",Dharshini Impex (P) Limited,Textile,Avinashi Road – Arasur Industrial Corridor,11.0698729,77.0646448,https://www.google.com/maps/place/Dharshini+Impex+%28P%29+Limited/data=!4m7!3m6!1s0x3ba858526b5c0591:0x2c1a977c8c30426d!8m2!3d11.0698729!4d77.0646448!16s%2Fg%2F1ts3d15y!19sChIJkQVca1JYqDsRbUIwjHyXGiw?authuser=0&hl=en&rclk=1
"POINT (77.039444 11.040844)",Vetal Textiles And Electronics Private Limited - Unit 2,Textile,Avinashi Road – Arasur Industrial Corridor,11.040844,77.039444,https://www.google.com/maps/place/Vetal+Textiles+And+Electronics+Private+Limited+-+Unit+2/data=!4m7!3m6!1s0x3ba858526b5c0591:0x88b45d0636be24dd!8m2!3d11.040844!4d77.039444!16s%2Fg%2F1w04hjvp!19sChIJkQVca1JYqDsR3SS-NgZdtIg?authuser=0&hl=en&rclk=1
"POINT (77.0643835 11.0890422)",RECYCLE TEXTILE FEDERATION - An Organization of Open End Spinning Mills,Textile,Avinashi Road – Arasur Industrial Corridor,11.0890422,77.0643835,https://www.google.com/maps/place/RECYCLE+TEXTILE+FEDERATION+-+An+Organization+of+Open+End+Spinning+Mills/data=!4m7!3m6!1s0x3ba859d406d83295:0x2eea4731e3d50529!8m2!3d11.0890422!4d77.0643835!16s%2Fg%2F11t3vqxvnp!19sChIJlTLYBtRZqDsRKQXV4zFH6i4?authuser=0&hl=en&rclk=1
"POINT (77.0363232 11.0387563)",The South India Textile Research Association(SITRA)- NABL accredited Testing Lab - PPE, Fabric, Medical Textile, Fiber & Yarn,Textile,Avinashi Road – Arasur Industrial Corridor,11.0387563,77.0363232,https://www.google.com/maps/place/The+South+India+Textile+Research+Association%28SITRA%29-+NABL+accredited+Testing+Lab+-+PPE,+Fabric,+Medical+Textile,+Fiber+%26+Yarn/data=!4m7!3m6!1s0x3ba8578f929836fd:0x27c22b5e9b08d698!8m2!3d11.0387563!4d77.0363232!16s%2Fg%2F11hdk_mcmx!19sChIJ_TaYko9XqDsRmNYIm14rwic?authuser=0&hl=en&rclk=1
"POINT (77.0667752 11.0652447)",TITSC,Textile,Avinashi Road – Arasur Industrial Corridor,11.0652447,77.0667752,https://www.google.com/maps/place/TITSC/data=!4m7!3m6!1s0x3ba857d285555555:0xf3bf8a335411a61e!8m2!3d11.0652447!4d77.0667752!16s%2Fg%2F11j7dmfx85!19sChIJVVVVhdJXqDsRHqYRVDOKv_M?authuser=0&hl=en&rclk=1
"POINT (77.0792861 11.0358141)",Premier Evolvics Pvt. Ltd.,Textile,Avinashi Road – Arasur Industrial Corridor,11.0358141,77.0792861,https://www.google.com/maps/place/Premier+Evolvics+Pvt.+Ltd./data=!4m7!3m6!1s0x3ba85641fc4ce043:0x9939eeaa6f451bd1!8m2!3d11.0358141!4d77.0792861!16s%2Fg%2F1hf87p1wr!19sChIJQ-BM_EFWqDsR0RtFb6ruOZk?authuser=0&hl=en&rclk=1
"POINT (77.085391 11.0717936)",Arunachala Weaving Mills,Textile,Avinashi Road – Arasur Industrial Corridor,11.0717936,77.085391,https://www.google.com/maps/place/Arunachala+Weaving+Mills/data=!4m7!3m6!1s0x3ba8f8a48056e48b:0x6c1525830442b059!8m2!3d11.0717936!4d77.085391!16s%2Fg%2F11fzbwpzfv!19sChIJi-RWgKT4qDsRWbBCBIMlFWw?authuser=0&hl=en&rclk=1
"POINT (77.0695752 11.0357726)",Unirols Airtex,Textile,Avinashi Road – Arasur Industrial Corridor,11.0357726,77.0695752,https://www.google.com/maps/place/Unirols+Airtex/data=!4m7!3m6!1s0x3ba858526b5c0591:0xec4f0d5e5f06dee2!8m2!3d11.0357726!4d77.0695752!16s%2Fg%2F1tdzdf70!19sChIJkQVca1JYqDsR4t4GX14NT-w?authuser=0&hl=en&rclk=1
"POINT (77.0623389 11.0868914)",Raga Tex India Private Ltd,Textile,Avinashi Road – Arasur Industrial Corridor,11.0868914,77.0623389,https://www.google.com/maps/place/Raga+Tex+India+Private+Ltd/data=!4m7!3m6!1s0x3ba8f91068f09671:0x1952e768b68581e6!8m2!3d11.0868914!4d77.0623389!16s%2Fg%2F11fn2g5tdn!19sChIJcZbwaBD5qDsR5oGFtmjnUhk?authuser=0&hl=en&rclk=1
"POINT (77.0637289 11.0774273)",(Sri Gomuki Tex Chem Pvt Ltd),Textile,Avinashi Road – Arasur Industrial Corridor,11.0774273,77.0637289,https://www.google.com/maps/place/%28Sri+Gomuki+Tex+Chem+Pvt+Ltd%29/data=!4m7!3m6!1s0x3ba8f94a6fb739ff:0x5b6de50c97a07f58!8m2!3d11.0774273!4d77.0637289!16s%2Fg%2F11j8kcpm64!19sChIJ_zm3b0r5qDsRWH-glwzlbVs?authuser=0&hl=en&rclk=1
"POINT (77.0882944 11.058622)",Serendip Sourcing Private Limited,Textile,Avinashi Road – Arasur Industrial Corridor,11.058622,77.0882944,https://www.google.com/maps/place/Serendip+Sourcing+Private+Limited/data=!4m7!3m6!1s0x3ba855eec7a14679:0xf561d8f07faa376d!8m2!3d11.058622!4d77.0882944!16s%2Fg%2F11thj_6j8v!19sChIJeUahx-5VqDsRbTeqf_DYYfU?authuser=0&hl=en&rclk=1
"POINT (77.0927132 11.0668183)",PSGTECHS COE INDUTECH LABORATORY,Textile,Avinashi Road – Arasur Industrial Corridor,11.0668183,77.0927132,https://www.google.com/maps/place/PSGTECHS+COE+INDUTECH+LABORATORY/data=!4m7!3m6!1s0x3ba8f8a8f6563bff:0x80ff80b3532df4bd!8m2!3d11.0668183!4d77.0927132!16s%2Fg%2F11fzf051qr!19sChIJ_ztW9qj4qDsRvfQtU7OA_4A?authuser=0&hl=en&rclk=1
"POINT (77.1339418 11.1147766)",Textile Auction,Textile,Avinashi Road – Arasur Industrial Corridor,11.1147766,77.1339418,https://www.google.com/maps/place/Textile+Auction/data=!4m7!3m6!1s0x3ba8ff4b348da3bf:0x17f4b921516db919!8m2!3d11.1147766!4d77.1339418!16s%2Fg%2F11vt6k71vl!19sChIJv6ONNEv_qDsRGbltUSG59Bc?authuser=0&hl=en&rclk=1
"POINT (77.1279415 11.0976622)",SIEGER SPINTECH EQUIPMENTS PVT. LTD.,Textile,Avinashi Road – Arasur Industrial Corridor,11.0976622,77.1279415,https://www.google.com/maps/place/SIEGER+SPINTECH+EQUIPMENTS+PVT.+LTD./data=!4m7!3m6!1s0x3ba8ff17ef7e432b:0x52d7467107ada503!8m2!3d11.0976622!4d77.1279415!16s%2Fg%2F1tfm9p2s!19sChIJK0N-7xf_qDsRA6WtB3FG11I?authuser=0&hl=en&rclk=1
"POINT (77.0637145 11.0774302)",SKD FINE DECOR CORP OFFICE,Textile,Avinashi Road – Arasur Industrial Corridor,11.0774302,77.0637145,https://www.google.com/maps/place/SKD+FINE+DECOR+CORP+OFFICE/data=!4m7!3m6!1s0x3ba857283f177c09:0x6681932cabed8ec0!8m2!3d11.0774302!4d77.0637145!16s%2Fg%2F11p1069r8_!19sChIJCXwXPyhXqDsRwI7tqyyTgWY?authuser=0&hl=en&rclk=1
"POINT (77.06595 11.0464424)",N.M ENGINEERING INDUSSTRIES,Textile,Avinashi Road – Arasur Industrial Corridor,11.0464424,77.06595,https://www.google.com/maps/place/N.M+ENGINEERING+INDUSSTRIES/data=!4m7!3m6!1s0x3b00c59ebfe9c9fb:0x1f46446fa2fcce91!8m2!3d11.0464424!4d77.06595!16s%2Fg%2F1tdyd1gj!19sChIJ-8npv57FADsRkc78om9ERh8?authuser=0&hl=en&rclk=1
"POINT (77.0977196 11.0693591)",Sam Turbo Industry Private Limited,Textile,Avinashi Road – Arasur Industrial Corridor,11.0693591,77.0977196,https://www.google.com/maps/place/Sam+Turbo+Industry+Private+Limited/data=!4m7!3m6!1s0x3ba859b559192afd:0x7042a2d2f95c2b07!8m2!3d11.0693591!4d77.0977196!16s%2Fg%2F1tfj1m5c!19sChIJ_SoZWbVZqDsRBytc-dKiQnA?authuser=0&hl=en&rclk=1
"POINT (77.1161297 11.0861378)",Accucut Lasers Unit III,Warehouses,Avinashi Road – Arasur Industrial Corridor,11.0861378,77.1161297,https://www.google.com/maps/place/Accucut+Lasers+Unit+III/data=!4m7!3m6!1s0x3ba8ff004e2b1a73:0x424d622b023659ed!8m2!3d11.0861378!4d77.1161297!16s%2Fg%2F11y54f96j8!19sChIJcxorTgD_qDsR7Vk2AitiTUI?authuser=0&hl=en&rclk=1
"POINT (77.0688799 11.0529199)",Bombay Metrics warehouse,Warehouses,Avinashi Road – Arasur Industrial Corridor,11.0529199,77.0688799,https://www.google.com/maps/place/Bombay+Metrics+warehouse/data=!4m7!3m6!1s0x3ba857004cdae679:0x8578d5eeb5c5e934!8m2!3d11.0529199!4d77.0688799!16s%2Fg%2F11n44tq7rr!19sChIJeebaTABXqDsRNOnFte7VeIU?authuser=0&hl=en&rclk=1
"POINT (77.0897182 11.0644431)",Central Roadways warehouse,Warehouses,Avinashi Road – Arasur Industrial Corridor,11.0644431,77.0897182,https://www.google.com/maps/place/Central+Roadways+warehouse/data=!4m7!3m6!1s0x3ba8f9ab22904535:0xb88ab41b66c675aa!8m2!3d11.0644431!4d77.0897182!16s%2Fg%2F11gjm3w352!19sChIJNUWQIqv5qDsRqnXGZhu0irg?authuser=0&hl=en&rclk=1
"POINT (77.1122689 11.0775806)",Chrysalis warehouse,Warehouses,Avinashi Road – Arasur Industrial Corridor,11.0775806,77.1122689,https://www.google.com/maps/place/Chrysalis+warehouse/data=!4m7!3m6!1s0x3ba8ff001e8812cb:0xad10c9f63a0649ca!8m2!3d11.0775806!4d77.1122689!16s%2Fg%2F11vq__s68p!19sChIJyxKIHgD_qDsRykkGOvbJEK0?authuser=0&hl=en&rclk=1
"POINT (77.0692864 11.0623811)",DEEP MOTORCORP,Warehouses,Avinashi Road – Arasur Industrial Corridor,11.0623811,77.0692864,https://www.google.com/maps/place/DEEP+MOTORCORP/data=!4m7!3m6!1s0x3ba8571c488bcab5:0x8d491474116d6950!8m2!3d11.0623811!4d77.0692864!16s%2Fg%2F11r2yvp6rv!19sChIJtcqLSBxXqDsRUGltEXQUSY0?authuser=0&hl=en&rclk=1
"POINT (77.0781701 11.0525422)",FMC INDIA PRIVATE LIMITED,Warehouses,Avinashi Road – Arasur Industrial Corridor,11.0525422,77.0781701,https://www.google.com/maps/place/FMC+INDIA+PRIVATE+LIMITED/data=!4m7!3m6!1s0x3ba857fc83c9b2a3:0x747f401f5caa411a!8m2!3d11.0525422!4d77.0781701!16s%2Fg%2F11jztfc2vk!19sChIJo7LJg_xXqDsRGkGqXB9Af3Q?authuser=0&hl=en&rclk=1
"POINT (77.0842901 11.0728091)",Goodyear india ltd. Coimbatore,Warehouses,Avinashi Road – Arasur Industrial Corridor,11.0728091,77.0842901,https://www.google.com/maps/place/Goodyear+india+ltd.+Coimbatore/data=!4m7!3m6!1s0x3ba8f90073358e21:0x3b2ccc65a79561c8!8m2!3d11.0728091!4d77.0842901!16s%2Fg%2F11yqq9vk9t!19sChIJIY41cwD5qDsRyGGVp2XMLDs?authuser=0&hl=en&rclk=1
"POINT (77.0576927 11.048551)",Jayem warehouse,Warehouses,Avinashi Road – Arasur Industrial Corridor,11.048551,77.0576927,https://www.google.com/maps/place/Jayem+warehouse/data=!4m7!3m6!1s0x3ba857ca34f6eeeb:0x42c34a99191f7c69!8m2!3d11.048551!4d77.0576927!16s%2Fg%2F11s5ys92hp!19sChIJ6-72NMpXqDsRaXwfGZlKw0I?authuser=0&hl=en&rclk=1
"POINT (77.112739 11.0743483)",KRK Warehouse,Warehouses,Avinashi Road – Arasur Industrial Corridor,11.0743483,77.112739,https://www.google.com/maps/place/KRK+Warehouse/data=!4m7!3m6!1s0x3ba8ffd943562dbd:0x899ec0869a82c9db!8m2!3d11.0743483!4d77.112739!16s%2Fg%2F11rg9_hkhc!19sChIJvS1WQ9n_qDsR28mCmobAnok?authuser=0&hl=en&rclk=1
"POINT (77.0995372 11.0747001)",Karthi house,Warehouses,Avinashi Road – Arasur Industrial Corridor,11.0747001,77.0995372,https://www.google.com/maps/place/Karthi+house/data=!4m7!3m6!1s0x3ba8f9005b8b390b:0xef55f4a75f8bddc1!8m2!3d11.0747001!4d77.0995372!16s%2Fg%2F11lw931jj3!19sChIJCzmLWwD5qDsRwd2LX6f0Ve8?authuser=0&hl=en&rclk=1
"POINT (77.0864614 11.0631928)",Karthik Enterprises Warehouse,Warehouses,Avinashi Road – Arasur Industrial Corridor,11.0631928,77.0864614,https://www.google.com/maps/place/Karthik+Enterprises+Warehouse/data=!4m7!3m6!1s0x3ba8f900623fc3f9:0x3be8634dd4992ca2!8m2!3d11.0631928!4d77.0864614!16s%2Fg%2F11yy0d2p4c!19sChIJ-cM_YgD5qDsRoiyZ1E1j6Ds?authuser=0&hl=en&rclk=1
"POINT (77.0296888 11.0383038)",Lulu Hypermarket warehouse,Warehouses,Avinashi Road – Arasur Industrial Corridor,11.0383038,77.0296888,https://www.google.com/maps/place/Lulu+Hypermarket+warehouse/data=!4m7!3m6!1s0x3ba857a0f89ea6e3:0xb70b25d65639a848!8m2!3d11.0383038!4d77.0296888!16s%2Fg%2F11tcl4drzz!19sChIJ46ae-KBXqDsRSKg5VtYlC7c?authuser=0&hl=en&rclk=1
"POINT (77.0537987 11.0722458)",MP Warehouses,Warehouses,Avinashi Road – Arasur Industrial Corridor,11.0722458,77.0537987,https://www.google.com/maps/place/MP+Warehouses/data=!4m7!3m6!1s0x3ba8f90034086d75:0xbc4366936d66dd12!8m2!3d11.0722458!4d77.0537987!16s%2Fg%2F11lzkfv6zn!19sChIJdW0INAD5qDsREt1mbZNmQ7w?authuser=0&hl=en&rclk=1
"POINT (77.0682385 11.0463186)",Muthu Warehouse Unit 1,Warehouses,Avinashi Road – Arasur Industrial Corridor,11.0463186,77.0682385,https://www.google.com/maps/place/Muthu+Warehouse+Unit+1/data=!4m7!3m6!1s0x3ba857dac3a14543:0x78ccec502dde60b6!8m2!3d11.0463186!4d77.0682385!16s%2Fg%2F11shk6j6ht!19sChIJQ0Whw9pXqDsRtmDeLVDszHg?authuser=0&hl=en&rclk=1
"POINT (77.0912693 11.0658213)",Muthu Warehouse Unit 2,Warehouses,Avinashi Road – Arasur Industrial Corridor,11.0658213,77.0912693,https://www.google.com/maps/place/Muthu+Warehouse+Unit+2/data=!4m7!3m6!1s0x3ba8f900286826cf:0xea94ea41aff34724!8m2!3d11.0658213!4d77.0912693!16s%2Fg%2F11yn2xjx_j!19sChIJzyZoKAD5qDsRJEfzr0HqlOo?authuser=0&hl=en&rclk=1
"POINT (77.1171567 11.0573643)",NTS Warehouse,Warehouses,Avinashi Road – Arasur Industrial Corridor,11.0573643,77.1171567,https://www.google.com/maps/place/NTS+Warehouse/data=!4m7!3m6!1s0x3ba8550060b08d71:0x54bfedf9c3992e2a!8m2!3d11.0573643!4d77.1171567!16s%2Fg%2F11y70x28yd!19sChIJcY2wYABVqDsRKi6Zw_ntv1Q?authuser=0&hl=en&rclk=1
"POINT (77.0655238 11.0553431)",Nandu Breeding Farm,Warehouses,Avinashi Road – Arasur Industrial Corridor,11.0553431,77.0655238,https://www.google.com/maps/place/Nandu+Breeding+Farm/data=!4m7!3m6!1s0x3ba8570016a21e8d:0x5a8629f05e9da8!8m2!3d11.0553431!4d77.0655238!16s%2Fg%2F11wxpkn6z5!19sChIJjR6iFgBXqDsRqJ1e8CmGWgA?authuser=0&hl=en&rclk=1
"POINT (77.0823959 11.0594036)",Office,Warehouses,Avinashi Road – Arasur Industrial Corridor,11.0594036,77.0823959,https://www.google.com/maps/place/Office/data=!4m7!3m6!1s0x3ba857005663879f:0x191039714739f12d!8m2!3d11.0594036!4d77.0823959!16s%2Fg%2F11x03k_y0g!19sChIJn4djVgBXqDsRLfE5R3E5EBk?authuser=0&hl=en&rclk=1
"POINT (77.1008897 11.0922699)",PN Warehouse,Warehouses,Avinashi Road – Arasur Industrial Corridor,11.0922699,77.1008897,https://www.google.com/maps/place/PN+Warehouse/data=!4m7!3m6!1s0x3ba8f900030c8b17:0x30d6548c20254ff8!8m2!3d11.0922699!4d77.1008897!16s%2Fg%2F11y3068nxp!19sChIJF4sMAwD5qDsR-E8lIIxU1jA?authuser=0&hl=en&rclk=1
"POINT (77.0374604 11.0530031)",Paramount Trading Corporation (Warehouse),Warehouses,Avinashi Road – Arasur Industrial Corridor,11.0530031,77.0374604,https://www.google.com/maps/place/Paramount+Trading+Corporation+%28Warehouse%29/data=!4m7!3m6!1s0x3ba8570ce9bacd99:0x830e447cf336c248!8m2!3d11.0530031!4d77.0374604!16s%2Fg%2F11hzwrwc8w!19sChIJmc266QxXqDsRSMI283xEDoM?authuser=0&hl=en&rclk=1
"POINT (77.0772618 11.0317091)",Pon Pure Chemical India Pvt Ltd - Irugur Warehouse,Warehouses,Avinashi Road – Arasur Industrial Corridor,11.0317091,77.0772618,https://www.google.com/maps/place/Pon+Pure+Chemical+India+Pvt+Ltd+-+Irugur+Warehouse/data=!4m7!3m6!1s0x3ba857c1772836c1:0x600cd374537a868b!8m2!3d11.0317091!4d77.0772618!16s%2Fg%2F11t7mrxgdw!19sChIJwTYod8FXqDsRi4Z6U3TTDGA?authuser=0&hl=en&rclk=1
"POINT (77.0655238 11.0553431)",Ponpure warehouse cbe,Warehouses,Avinashi Road – Arasur Industrial Corridor,11.0553431,77.0655238,https://www.google.com/maps/place/Ponpure+warehouse+cbe/data=!4m7!3m6!1s0x3ba8570065369491:0x961082ec1952612d!8m2!3d11.0553431!4d77.0655238!16s%2Fg%2F11vjyfhk80!19sChIJkZQ2ZQBXqDsRLWFSGeyCEJY?authuser=0&hl=en&rclk=1
"POINT (77.1133938 11.0735399)",Pulleys Centre, warehouse,Warehouses,Avinashi Road – Arasur Industrial Corridor,11.0735399,77.1133938,https://www.google.com/maps/place/Pulleys+Centre,+warehouse/data=!4m7!3m6!1s0x3ba8fb10c4f032b1:0x9fe514ed932f5c3e!8m2!3d11.0735399!4d77.1133938!16s%2Fg%2F11hz65dhzq!19sChIJsTLwxBD7qDsRPlwvk-0U5Z8?authuser=0&hl=en&rclk=1
"POINT (77.0711645 11.0525251)",ROHANNA AGRI PVT LTD,Warehouses,Avinashi Road – Arasur Industrial Corridor,11.0525251,77.0711645,https://www.google.com/maps/place/ROHANNA+AGRI+PVT+LTD/data=!4m7!3m6!1s0x3ba8572639906b75:0x87796165a4ff96dd!8m2!3d11.0525251!4d77.0711645!16s%2Fg%2F11vbbkq7z4!19sChIJdWuQOSZXqDsR3Zb_pGVheYc?authuser=0&hl=en&rclk=1
"POINT (77.0494892 11.0490143)",Rajathi Warehouse,Warehouses,Avinashi Road – Arasur Industrial Corridor,11.0490143,77.0494892,https://www.google.com/maps/place/Rajathi+Warehouse/data=!4m7!3m6!1s0x3ba857d2c837e2cd:0x9b8b7c729f31b9bd!8m2!3d11.0490143!4d77.0494892!16s%2Fg%2F11khtczdnt!19sChIJzeI3yNJXqDsRvbkxn3J8i5s?authuser=0&hl=en&rclk=1
"POINT (77.079314 11.0423859)",S&T Welcare Equipment Warehouse,Warehouses,Avinashi Road – Arasur Industrial Corridor,11.0423859,77.079314,https://www.google.com/maps/place/S%26T+Welcare+Equipment+Warehouse/data=!4m7!3m6!1s0x3ba857cd77fc8eb3:0x3f2fc3177936281c!8m2!3d11.0423859!4d77.079314!16s%2Fg%2F11sv1btdrl!19sChIJs478d81XqDsRHCg2eRfDLz8?authuser=0&hl=en&rclk=1
"POINT (77.0674406 11.0652516)",SBR Enterprises ( Continental Warehouse - Kovai ),Warehouses,Avinashi Road – Arasur Industrial Corridor,11.0652516,77.0674406,https://www.google.com/maps/place/SBR+Enterprises+%28+Continental+Warehouse+-+Kovai+%29/data=!4m7!3m6!1s0x3ba8f91072cba539:0x39a7415a207bb335!8m2!3d11.0652516!4d77.0674406!16s%2Fg%2F11scs8mhtn!19sChIJOaXLchD5qDsRNbN7IFpBpzk?authuser=0&hl=en&rclk=1
"POINT (77.1128648 11.0739824)",SRP Warehouse,Warehouses,Avinashi Road – Arasur Industrial Corridor,11.0739824,77.1128648,https://www.google.com/maps/place/SRP+Warehouse/data=!4m7!3m6!1s0x3ba8fffd2e20ba8d:0x166a71b3d34e848c!8m2!3d11.0739824!4d77.1128648!16s%2Fg%2F11rg9_dkpf!19sChIJjbogLv3_qDsRjIRO07NxahY?authuser=0&hl=en&rclk=1
"POINT (77.0679386 11.0593324)",SUNSHINE,Warehouses,Avinashi Road – Arasur Industrial Corridor,11.0593324,77.0679386,https://www.google.com/maps/place/SUNSHINE/data=!4m7!3m6!1s0x3ba8570073873487:0x7b3ec6459d49e9c7!8m2!3d11.0593324!4d77.0679386!16s%2Fg%2F11w8fmhtys!19sChIJhzSHcwBXqDsRx-lJnUXGPns?authuser=0&hl=en&rclk=1
"POINT (77.1090627 11.0595592)",Shivani warehouse 2,Warehouses,Avinashi Road – Arasur Industrial Corridor,11.0595592,77.1090627,https://www.google.com/maps/place/Shivani+warehouse+2/data=!4m7!3m6!1s0x3ba855007c13de37:0x99a31f2fe94c008b!8m2!3d11.0595592!4d77.1090627!16s%2Fg%2F11x155z3wr!19sChIJN94TfABVqDsRiwBM6S8fo5k?authuser=0&hl=en&rclk=1
"POINT (77.1086217 11.0595918)",Shivani warehouse Coimbatore,Warehouses,Avinashi Road – Arasur Industrial Corridor,11.0595918,77.1086217,https://www.google.com/maps/place/Shivani+warehouse+Coimbatore/data=!4m7!3m6!1s0x3ba855107b62e2bf:0x58b4b12ad234621a!8m2!3d11.0595918!4d77.1086217!16s%2Fg%2F11lphkmh_5!19sChIJv-JiexBVqDsRGmI00iqxtFg?authuser=0&hl=en&rclk=1
"POINT (77.1175323 11.0579442)",Sri Sai traders(Boopathy’s warehouses),Warehouses,Avinashi Road – Arasur Industrial Corridor,11.0579442,77.1175323,https://www.google.com/maps/place/Sri+Sai+traders%28Boopathy%E2%80%99s+warehouses%29/data=!4m7!3m6!1s0x3ba85531c16a7ecb:0x110cb93a7095a476!8m2!3d11.0579442!4d77.1175323!16s%2Fg%2F11l31rzb0w!19sChIJy35qwTFVqDsRdqSVcDq5DBE?authuser=0&hl=en&rclk=1
"POINT (77.0985454 11.0746062)",TVS Logistics Services Ltd Coimbatore,Warehouses,Avinashi Road – Arasur Industrial Corridor,11.0746062,77.0985454,https://www.google.com/maps/place/TVS+Logistics+Services+Ltd+Coimbatore/data=!4m7!3m6!1s0x3ba8f8ad8bec5e7d:0xd3e26b9ba4de3972!8m2!3d11.0746062!4d77.0985454!16s%2Fg%2F1tgx0g79!19sChIJfV7si634qDsRcjnepJtr4tM?authuser=0&hl=en&rclk=1
"POINT (77.1140018 11.0630586)",VG&P WAREHOUSE PVT.LTD,Warehouses,Avinashi Road – Arasur Industrial Corridor,11.0630586,77.1140018,https://www.google.com/maps/place/VG%26P+WAREHOUSE+PVT.LTD/data=!4m7!3m6!1s0x3ba8558687dc21ab:0x4a2d3d236f0be339!8m2!3d11.0630586!4d77.1140018!16s%2Fg%2F11h__x1qyk!19sChIJqyHch4ZVqDsROeMLbyM9LUo?authuser=0&hl=en&rclk=1
"POINT (77.0895923 11.0628667)",VT05 - VF Neelambur DC (SKDS) Reliance retail,Warehouses,Avinashi Road – Arasur Industrial Corridor,11.0628667,77.0895923,https://www.google.com/maps/place/VT05+-+VF+Neelambur+DC+%28SKDS%29+Reliance+retail/data=!4m7!3m6!1s0x3ba857f12f5b813f:0xbdfb10c6a493d4d1!8m2!3d11.0628667!4d77.0895923!16s%2Fg%2F11s5wps52r!19sChIJP4FbL_FXqDsR0dSTpMYQ-70?authuser=0&hl=en&rclk=1
"POINT (77.1168303 11.0614501)",Yuga's Warehouse Godown,Warehouses,Avinashi Road – Arasur Industrial Corridor,11.0614501,77.1168303,https://www.google.com/maps/place/Yuga%27s+Warehouse+Godown/data=!4m7!3m6!1s0x3ba855fac287581f:0x83c977d7f17a2d96!8m2!3d11.0614501!4d77.1168303!16s%2Fg%2F11l71dzxnr!19sChIJH1iHwvpVqDsRli168dd3yYM?authuser=0&hl=en&rclk=1
"POINT (77.103915 11.065206)",loom crafts warehouse,Warehouses,Avinashi Road – Arasur Industrial Corridor,11.065206,77.103915,https://www.google.com/maps/place/loom+crafts+warehouse/data=!4m7!3m6!1s0x3ba8ff000d9a05b9:0x74a7f4f1dff561b2!8m2!3d11.065206!4d77.103915!16s%2Fg%2F11ln5jddrp!19sChIJuQWaDQD_qDsRsmH13_H0p3Q?authuser=0&hl=en&rclk=1
,,,,,,
,,,,,,
,,,,,,
,,,,,,
,,,,,,
,,,,,,
,,,,,,
,,,,,,
,,,,,,
,,,,,,
,,,,,,
,,,Companies,,,
,,,40,,,
,,,44,,,
,,,25,,,
,,,22,,,
,,,20,,,
,,,16,,,
,,,16,,,
,,,15,,,
,,,7,,,
